address,lat,lon
1290 NORTH AVE CLEVELAND WI 53015,43.92434,-87.75249
1150 W WASHINGTON AVE CLEVELAND WI 53015,43.91428,-87.75108
15318 COUNTY ROAD X KIEL WI 53042,43.95045,-87.88698
510 3RD ST KIEL WI 53042,43.91147,-88.03207
21935 ROCKVILLE RD KIEL WI 53042,43.9184,-87.99888
1527 DAY ST GREENLEAF WI 54126,44.31374,-88.10147
615 MILWAUKEE ST COLLINS WI 54207,44.08782,-87.98223
200 NORWOOD DR FRANCIS CREEK WI 54214,44.20205,-87.72325
129 S PACKER DR FRANCIS CREEK WI 54214,44.19735,-87.72061
1215 N 8TH ST MANITOWOC WI 54220,44.11125,-87.65408
3613 WALDO BLVD MANITOWOC WI 54220,44.10832,-87.69441
2902 LINDBERGH DR MANITOWOC WI 54220,44.09944,-87.68408
3330 CUSTER ST MANITOWOC WI 54220,44.08882,-87.68747
900 QUAY ST MANITOWOC WI 54220,44.09137,-87.65973
2021 S 14TH ST MANITOWOC WI 54220,44.07412,-87.66574
911 FRANKLIN ST MANITOWOC WI 54220,44.09021,-87.66017
3001 S 10TH ST MANITOWOC WI 54220,44.06158,-87.65716
411 REED AVE MANITOWOC WI 54220,44.11336,-87.6531
1822 SILVER CREEK RD MANITOWOC WI 54220,44.05251,-87.67279
8624 COUNTY ROAD JJ MANITOWOC WI 54220,44.11181,-87.77456
6532 CARSTENS LAKE RD MANITOWOC WI 54220,44.02285,-87.74054
14905 MULBERRY ST MARIBEL WI 54227,44.27651,-87.80259
11626 COUNTY ROAD Z MARIBEL WI 54227,44.27686,-87.82655
14920 COUNTY ROAD Q MISHICOT WI 54228,44.27851,-87.71552
314 W MAIN ST MISHICOT WI 54228,44.24205,-87.64975
314 W MAIN ST MISHICOT WI 54228,44.24205,-87.64975
14004 UPPER FALLS RD CATO WI 54230,44.09059,-87.86483
217 MENASHA ST REEDSVILLE WI 54230,44.154,-87.94903
14134 TAUS RD REEDSVILLE WI 54230,44.18991,-87.86814
8432 N COUNTY RD W REEDSVILLE WI 54230,44.20006,-87.96519
228 W MAIN ST ST NAZIANZ WI 54232,44.00832,-87.92596
5128 TAPAWINGO RD TWO RIVERS WI 54241,44.28462,-87.56704
3201 MISHICOT RD TWO RIVERS WI 54241,44.16356,-87.58124
1717 E PARK ST TWO RIVERS WI 54241,44.1494,-87.56747
1114 LOWELL ST TWO RIVERS WI 54241,44.14392,-87.58388
2801 GARFIELD ST TWO RIVERS WI 54241,44.15969,-87.5565
6525 COUNTY ROAD B TWO RIVERS WI 54241,44.17715,-87.6487
207 S LIBERTY ST VALDERS WI 54245,44.0652,-87.88171
13812 ENGLISH LAKE RD VALDERS WI 54245,44.05151,-87.86253
147 W MENASHA AVE WHITELAW WI 54247,44.14421,-87.82784
626 PARK ST KELLNERSVILLE WI 54215,44.22569,-87.80492
316 W MAIN ST ST NAZIANZ WI 54232,44.00877,-87.93096
