osm_id,code,fclass,name,point_x,point_y,lon,lat
349362577,2082,school,Annunciation Grade School,-88.0362149000,44.5266588000,-88.03621,44.52666
349362843,2082,school,Babcock School,-88.0976034000,44.4919355000,-88.0976,44.49194
349366256,2082,school,Cormier Early Childhood Center,-88.0489744000,44.4844520000,-88.04897,44.48445
349368679,2082,school,East River Valley School,-88.0195467000,44.4333256000,-88.01955,44.43333
349375864,2082,school,Immanuel School,-87.9525984000,44.3574930000,-87.9526,44.35749
349379844,2082,school,Green Bay Montessori Children's World,-88.0781703000,44.4489543000,-88.07817,44.44895
349379863,2082,school,Lincoln School,-88.0656578000,44.4013804000,-88.06566,44.40138
349382614,2082,school,Norwood School,-88.0381593000,44.5047142000,-88.03816,44.50471
349383900,2082,school,Nicolet Elementary School,-87.9936330000,44.5130499000,-87.99363,44.51305
349385949,2082,school,Park View School,-88.0895476000,44.4683245000,-88.08955,44.46832
349386682,2082,school,Roosevelt School,-88.0014928000,44.5019369000,-88.00149,44.50194
349386884,2082,school,Roosevelt School,-87.9776029000,44.5152706000,-87.9776,44.51527
349387639,2082,school,Porlier School,-88.1149174000,44.5155079000,-88.11492,44.51551
349387946,2082,school,Resurrection Catholic School,-88.0309362000,44.4597143000,-88.03094,44.45971
349388885,2082,school,Saint Joseph School,-88.0406593000,44.5069364000,-88.04066,44.50694
349389634,2082,school,Saint Bernard School,-87.9727055000,44.4941259000,-87.97271,44.49413
349389876,2082,school,Notre Dame Consolidated School,-88.0587139000,44.4469360000,-88.05871,44.44694
349390824,2082,school,Saints Peter and Paul School,-87.9897119000,44.5131948000,-87.98971,44.51319
349391295,2082,school,School Number Six,-87.8864877000,44.5027714000,-87.88649,44.50277
349391572,2082,school,Saint Philips School,-87.9834723000,44.4989914000,-87.98347,44.49899
349392400,2082,school,Saint Patrick School,-88.0234371000,44.5194367000,-88.02344,44.51944
349393065,2082,school,Saint Marys School,-88.0548228000,44.3130471000,-88.05482,44.31305
349393922,2082,school,Lombardi Middle School,-88.1104725000,44.5156844000,-88.11047,44.51568
349396650,2082,school,Tank Elementary School,-88.0317705000,44.5108254000,-88.03177,44.51083
349398957,2082,school,Redeemer Lutheran School,-88.0442705000,44.5227698000,-88.04427,44.52277
349398977,2082,school,Monroe School,-88.0178816000,44.5008256000,-88.01788,44.50083
349399017,2082,school,Northeast Wisconsin High School,-88.0687147000,44.5088805000,-88.06871,44.50888
349399062,2082,school,Seventh Day Adventist School,-88.0531593000,44.5288808000,-88.05316,44.52888
349399282,2082,school,Saint Pauls Evangelical Lutheran School,-88.0075233000,44.5045104000,-88.00752,44.50451
349399492,2082,school,Saint Jude Grade School,-88.0506594000,44.5316587000,-88.05066,44.53166
349399538,2082,school,Holy Cross School,-87.8895440000,44.5530490000,-87.88954,44.55305
349399601,2082,school,Zion School,-87.9798201000,44.2913816000,-87.97982,44.29138
349402495,2082,school,Wayside School,-87.9506514000,44.2488818000,-87.95065,44.24888
349403016,2082,school,White Pine School,-88.0981592000,44.6058255000,-88.09816,44.60583
349403341,2082,school,Keller Elementary School,-88.0659370000,44.5411030000,-88.06594,44.5411
349403359,2082,school,Lineville Intermediate School,-88.0873764000,44.5920768000,-88.08738,44.59208
349403372,2082,school,Saint Mary of the Angels School,-88.0034599000,44.5005995000,-88.00346,44.5006
349403383,2082,school,Meadowbrook Elementary School,-88.0987147000,44.5613806000,-88.09871,44.56138
349408472,2082,school,Hopp School,-88.0806583000,44.4299913000,-88.08066,44.42999
349408490,2082,school,Holy Martyrs of Gorcum School,-87.9053771000,44.4869378000,-87.90538,44.48694
349408509,2082,school,Martin School,-87.9632218000,44.4898650000,-87.96322,44.48986
349408541,2082,school,Pulaski Community School,-88.2439961000,44.6699819000,-88.244,44.66998
349408590,2082,school,Saint Matthew Elementary School,-88.0273158000,44.4751920000,-88.02732,44.47519
349408607,2082,school,Saint John the Baptist School,-88.0834370000,44.5647141000,-88.08344,44.56471
349408622,2082,school,Assumption of the Blessed Virgin Mary Grade School,-88.2417692000,44.6736046000,-88.24177,44.6736
349408652,2082,school,Washington Middle School,-87.9978720000,44.5040135000,-87.99787,44.50401
349409804,2082,school,All Saints Grade School,-87.8350933000,44.3488828000,-87.83509,44.34888
349409839,2082,school,Benderville School,-87.8687105000,44.5886046000,-87.86871,44.5886
349409853,2082,school,West De Pere High School,-88.0787139000,44.4424913000,-88.07871,44.44249
349409906,2082,school,Donovan School,-87.9948941000,44.4888287000,-87.99489,44.48883
349409921,2082,school,Doty Elementary School,-88.0304104000,44.4535015000,-88.03041,44.4535
349409936,2082,school,Edison Junior High School,-87.9492681000,44.4936041000,-87.94927,44.4936
349427456,2082,school,Saint Johns Roman Catholic School,-88.0159904000,44.5088600000,-88.01599,44.50886
349427471,2082,school,Saint Francis Xavier Roman Catholic School,-88.0104316000,44.5111494000,-88.01043,44.51115
349427761,2082,school,Rasmussen College - Green Bay Campus,-88.0807751000,44.5262495000,-88.08078,44.52625
367811120,2012,community_centre,Green Bay Community Center,-87.9978816000,44.5119370000,-87.99788,44.51194
593560643,2504,mall,Bay Park Square Mall,-88.0656171000,44.4840899000,-88.06562,44.48409
1456359758,2501,supermarket,Dick's Family Foods,-88.1594094000,44.3202140000,-88.15941,44.32021
1456393308,2082,school,St John's Lutheran School,-88.1584541000,44.3271483000,-88.15845,44.32715
1456393327,2082,school,St. Clare's Catholic School,-88.1648699000,44.3289711000,-88.16487,44.32897
1456418841,2082,school,Hemlock Creek Elementary School,-88.1434941000,44.4246716000,-88.14349,44.42467
1765365025,2110,hospital,Aurora Health Center,-88.0343388000,44.4395373000,-88.03434,44.43954
1924061448,2501,supermarket,Larry's Piggly Wiggly,-88.0347420000,44.4369392000,-88.03474,44.43694
2301449688,2303,cafe,Starbucks,-88.0755940000,44.4709369000,-88.07559,44.47094
2511252516,2082,school,Suamico Elementary School,-88.0675631000,44.6365988000,-88.06756,44.6366
3512893798,2303,cafe,Common Grounds,-87.9196664000,44.5325317000,-87.91967,44.53253
4678509744,2402,motel,Motel 6,-88.0615713000,44.5311322000,-88.06157,44.53113
4678510315,2402,motel,Motel 6 Green Bay - Lambeau,-88.0783930000,44.4714785000,-88.07839,44.47148
4678510318,2402,motel,Super 8 Green Bay Near Stadium,-88.0767294000,44.4715237000,-88.07673,44.47152
4678510332,2402,motel,Economy Inn Green Bay,-88.0400886000,44.4997467000,-88.04009,44.49975
4678510335,2402,motel,Village Inn,-88.0105968000,44.5131982000,-88.0106,44.5132
4678510337,2402,motel,St. Brendan's Irish Inn,-88.0179661000,44.5123566000,-88.01797,44.51236
4678510346,2402,motel,Days Inn & Suites Green Bay WI.,-88.0063347000,44.5033782000,-88.00633,44.50338
4678510391,2402,motel,Super 8,-87.9374150000,44.4867030000,-87.93742,44.4867
4733703596,2303,cafe,Luna Coffee Roasters,-88.0691428000,44.4475688000,-88.06914,44.44757
4733957438,2082,school,West De Pere Middle School,-88.0934767000,44.4393242000,-88.09348,44.43932
4735636276,2012,community_centre,Ashwaubenon Community Center,-88.0691040000,44.4861920000,-88.0691,44.48619
4755700409,2303,cafe,Granddaddy's Soul Food Cafe',-88.0741059000,44.4748769000,-88.07411,44.47488
4756643522,2501,supermarket,Gordon Food Service,-88.0701905000,44.4788346000,-88.07019,44.47883
4756662522,2303,cafe,Gloria Jean's,-88.0663595000,44.4844930000,-88.06636,44.48449
4757165428,2501,supermarket,Festival Wine & Spirits,-88.0858847000,44.5253186000,-88.08588,44.52532
4757179821,2012,community_centre,Oneida Bingo,-88.1258043000,44.4970359000,-88.1258,44.49704
4758899775,2303,cafe,Bagels,-88.0651012000,44.4885499000,-88.0651,44.48855
4760388324,2303,cafe,Home Town,-88.0588826000,44.5222473000,-88.05888,44.52225
4760390424,2303,cafe,Starbucks,-88.0634196000,44.5237830000,-88.06342,44.52378
4760956523,2082,school,Oneida Nation Community Education Center,-88.1077568000,44.4913567000,-88.10776,44.49136
4760956527,2012,community_centre,Kinetic Archery,-88.1086219000,44.4901777000,-88.10862,44.49018
4760956533,2303,cafe,Crystal Coffee,-88.1066317000,44.4914199000,-88.10663,44.49142
4760956538,2012,community_centre,National Indian Gaming Association,-88.1059451000,44.4914193000,-88.10595,44.49142
4760956539,2012,community_centre,Karate Usa,-88.1046718000,44.4917600000,-88.10467,44.49176
4763273021,2501,supermarket,Pick 'n Save,-88.0757309000,44.5067988000,-88.07573,44.5068
4763273522,2303,cafe,Cheese Cake Heaven,-88.0602208000,44.4957671000,-88.06022,44.49577
4765810527,2501,supermarket,Aldi,-88.0707152000,44.4837807000,-88.07072,44.48378
4768858924,2501,supermarket,Aldi,-87.9606729000,44.4856452000,-87.96067,44.48565
4768858933,2012,community_centre,Gnome Games,-87.9689685000,44.4828756000,-87.96897,44.48288
4768867621,2303,cafe,Starbucks,-87.9699253000,44.4843634000,-87.96993,44.48436
4770502823,2303,cafe,Starbucks,-87.9884151000,44.4584676000,-87.98842,44.45847
4770502831,2303,cafe,Grapevine,-87.9807810000,44.4640896000,-87.98078,44.46409
4770502850,2501,supermarket,Pick 'n Save,-87.9867719000,44.4645360000,-87.98677,44.46454
4770503724,2303,cafe,Bean  Boulevard Cafe',-87.9832431000,44.4663405000,-87.98324,44.46634
4773909922,2012,community_centre,Ray & Joan Kroc Corps Community Center,-87.9795658000,44.4815281000,-87.97957,44.48153
4800173730,2013,nursing_home,ManorCare Health Services-East Green Bay,-88.0097559000,44.5037883000,-88.00976,44.50379
4955521157,2501,supermarket,Woodman's,-88.0766060000,44.5432443000,-88.07661,44.54324
5251080507,2501,supermarket,Ace Hardware,-88.0817254000,44.5650648000,-88.08173,44.56506
5774288314,2083,kindergarten,KinderCare,-88.0611029000,44.4884341000,-88.0611,44.48843
5943113644,2303,cafe,Liberty Café,-88.0132811000,44.5155458000,-88.01328,44.51555
5943188878,2303,cafe,The Creamery,-88.0154571000,44.5165354000,-88.01546,44.51654
5943233847,2303,cafe,Daily Buzz,-88.0165573000,44.5143254000,-88.01656,44.51433
5943272537,2501,supermarket,Main Oriental Market,-88.0085450000,44.5144994000,-88.00854,44.5145
5943272538,2303,cafe,Grounded Café,-88.0166193000,44.5114713000,-88.01662,44.51147
5943272541,2303,cafe,The Attic Books & Coffee,-88.0059579000,44.5141543000,-88.00596,44.51415
5943323543,2501,supermarket,Xiong Oriental Market,-88.0081593000,44.5148834000,-88.00816,44.51488
5983439686,2303,cafe,Phoenix Club,-87.9197964000,44.5323324000,-87.9198,44.53233
5983468318,2012,community_centre,MultiEthnic Cultural Center,-87.9198849000,44.5325326000,-87.91988,44.53253
5983468319,2012,community_centre,Pride Center,-87.9197829000,44.5322063000,-87.91978,44.53221
5993159478,2303,cafe,LaoJava,-88.0843268000,44.5530145000,-88.08433,44.55301
6021079464,2303,cafe,Monkey Tailz,-88.0212218000,44.5177429000,-88.02122,44.51774
6021082233,2501,supermarket,Mi Tierra Food Market,-87.9938093000,44.5115261000,-87.99381,44.51153
6021082237,2501,supermarket,Asian Taste Supermarket,-88.0061357000,44.5142103000,-88.00614,44.51421
6021083148,2303,cafe,Copper Rock Coffee Co.,-88.0197213000,44.5190586000,-88.01972,44.51906
6343960931,2082,school,Royal Montessori Academy,-88.0563972000,44.4874151000,-88.0564,44.48742
6351565791,2303,cafe,Jitter Bean Coffee and Ice Cream,-87.9955932000,44.4531858000,-87.99559,44.45319
6422428924,2303,cafe,Starbucks,-88.0863163000,44.4518550000,-88.08632,44.45186
6463529720,2501,supermarket,Pick 'n Save,-87.9765886000,44.4954263000,-87.97659,44.49543
6465792884,2303,cafe,Starbucks,-87.9718645000,44.4846033000,-87.97186,44.4846
6824007857,2303,cafe,Lox Stock'n Bagel,-88.0159821000,44.4947502000,-88.01598,44.49475
6824302406,2501,supermarket,Fresh Thyme,-88.0717317000,44.4736567000,-88.07173,44.47366
6868476593,2402,motel,Econo Lodge,-88.0768938000,44.4735098000,-88.07689,44.47351
6876879713,2501,supermarket,Aldi,-88.0612174000,44.5265673000,-88.06122,44.52657
6907729384,2303,cafe,Jo Go Coffee,-87.9171361000,44.4860224000,-87.91714,44.48602
6919388353,2303,cafe,Allouez Cafe,-88.0230726000,44.4847119000,-88.02307,44.48471
349536866,2005,post_office,De Pere Post Office,-88.0592695000,44.4488805000,-88.05927,44.44888
349538238,2005,post_office,Green Bay Post Office,-88.0134372000,44.5136035000,-88.01344,44.5136
367808608,2009,courthouse,Brown County Courthouse,-88.0142328000,44.5128651000,-88.01423,44.51287
367808704,2002,fire_station,Fire Station Number 2,-88.0009372000,44.5163815000,-88.00094,44.51638
367808709,2002,fire_station,Fire Station Number 3,-88.0303816000,44.5194366000,-88.03038,44.51944
367808710,2002,fire_station,Fire Station Number 4,-88.0338445000,44.5034079000,-88.03384,44.50341
367808769,2007,library,De Pere Branch Brown County Library,-88.0703807000,44.4477692000,-88.07038,44.44777
367808771,2007,library,Brown County Library,-88.0101039000,44.5147146000,-88.0101,44.51471
367808940,2007,library,Southwest Branch Kellogg Public Library,-88.0434370000,44.5074920000,-88.04344,44.50749
367808942,2007,library,Saint Catherines Library,-88.0162149000,44.5099923000,-88.01621,44.50999
367808943,2007,library,North Branch Kellogg Public Library,-87.9943036000,44.5133631000,-87.9943,44.51336
367808944,2007,library,Fort Howard Branch Kellogg Public Library,-88.0264927000,44.5186033000,-88.02649,44.5186
591527409,2005,post_office,,-87.8263272000,44.3471004000,-87.82633,44.3471
591541085,2002,fire_station,,-87.8272187000,44.3529645000,-87.82722,44.35296
1456377913,2005,post_office,Wrightstown Post Office,-88.1672200000,44.3278855000,-88.16722,44.32789
1456377916,2002,fire_station,Fire Department,-88.1749984000,44.3277934000,-88.175,44.32779
1456393311,2008,town_hall,Wrightstown Village Hall,-88.1585721000,44.3221747000,-88.15857,44.32217
1764628130,2002,fire_station,"De Pere Fire Dept, Station 2",-88.0905203000,44.4453933000,-88.09052,44.44539
1764628714,2002,fire_station,"De Pere Fire Dept, Station 1",-88.0600987000,44.4464503000,-88.0601,44.44645
1764629225,2008,town_hall,De Pere City Hall,-88.0599271000,44.4456729000,-88.05993,44.44567
4551679565,2008,town_hall,Suamico Town Hall,-88.0690498000,44.6178509000,-88.06905,44.61785
4737312220,2008,town_hall,Town of Ledgeview Municipal Building,-87.9771804000,44.4234414000,-87.97718,44.42344
4755700406,2005,post_office,United States Post Office,-88.0708716000,44.4753187000,-88.07087,44.47532
4768858838,2007,library,Brown County Library East Branch,-87.9689381000,44.4830743000,-87.96894,44.48307
6273357165,2008,town_hall,Denmark Village Hall,-87.8278074000,44.3480635000,-87.82781,44.34806
6273357166,2001,police,Denmark Police Department,-87.8278443000,44.3481547000,-87.82784,44.34815
6422428925,2005,post_office,FedEx,-88.0860536000,44.4517666000,-88.08605,44.45177
6872576602,2005,post_office,United States Post Office,-87.9570900000,44.4676847000,-87.95709,44.46768
7768097487,2007,library,Northeastern Wisconsin Technical College Library,-88.1066319000,44.5265854000,-88.10663,44.52659
